{
  "apprenants" : [
    {
      "id" : 1,
      "nom" : "LHERMITE",
      "prenom" : "Thais",
      "ville" : "Locquirec",
      "avatar" : "avatar.png",
      "anecdotes" : "Quand j’étais petite, j’ai creusé un trou dans le jardin pour arriver au Japon !",
      "coordonnees": {
        "latitude" : "34.886306",
        "longitude" : "134.379711"
      }
    },
    {
      "id" : 2,
      "nom" : "BONNET",
      "prenom" : "Angeline",
      "ville": "Combourg",
      "avatar" : "avatar.png",
      "anecdotes" : "A fais la bise à Jacques Chirac pendant son mandat",
      "coordonnees": {
        "latitude" : "",
        "longitude" : ""
      }
    },
    {
      "id" : 3,
      "nom" : "CHETAIL",
      "prenom" : "Quentin",
      "ville" : "Saint-Brieuc",
      "avatar" : "avatar.png",
      "anecdotes" : "A croisé Nolwenn Leroy dans une chocolaterie",
      "coordonnees": {
        "latitude" : "48.5234518",
        "longitude" : "-2.7499993"
      }
    },
    {
      "id" : 4,
      "nom" : "LETAILLEUR",
      "prenom" : "Kévin",
      "ville" : "",
      "avatar" : "avatar.png",
      "anecdotes" : "",
      "coordonnees": {
        "latitude" : "",
        "longitude" : ""
      }
    },
    {
      "id" : 5,
      "nom" : "RABIN",
      "prenom" : "Justine",
      "ville" : "Soignolles-en-Brie",
      "avatar" : "avatar.png",
      "anecdotes" : "",
      "coordonnees": {
        "latitude" : "48.665",
        "longitude" : "2.74"
      }
    },
    {
      "id" : 6,
      "nom" : "HOAREAU",
      "prenom" : "Fabien",
      "ville" : "Pont d'Ain",
      "avatar" : "avatar.png",
      "anecdotes" : "Je suis devenu l'ami d'un dauphin",
      "coordonnees": {
        "latitude" : "46.049237",
        "longitude" : "5.344977"
      }
    },
    {
      "id" : 7,
      "nom" : "NEAL",
      "prenom" : "Chhoeurng",
      "ville" : "Villefontaine",
      "avatar" : "avatar.png",
      "anecdotes" : "",
      "coordonnees": {
        "latitude" : "47.2258527",
        "longitude" : "5.15"
      }
    },
    {
      "id" : 8,
      "nom" : "DENOUAL",
      "prenom" : "Maurine",
      "ville" : "Saint-Sulpice-des-Landes",
      "avatar" : "avatar.png",
      "anecdotes" : "J'ai trouvé 100€ un soir en marchant dans Rennes, j'ai cru à une caméra cachée donc je ne les ai pas ramassé, mais des potes oui.",
      "coordonnees": {
        "latitude" : "47.8910811",
        "longitude" : "-2.8377063"
      }
    },
    {
      "id" : 9,
      "nom" : "ALMEIDA ALVES",
      "prenom" : "Helio",
      "ville" : "",
      "avatar" : "avatar.png",
      "anecdotes" : "",
      "coordonnees": {
        "latitude" : "",
        "longitude" : ""
      }
    },
    {
      "id" : 10,
      "nom" : "MONTEIRO",
      "prenom" : "Nicolas",
      "ville" : "Clermont-Ferrand",
      "avatar" : "avatar.png",
      "anecdotes" : "Quand j'étais petit je me suis déjà fais courser par 2 chihuahuas pendant que je faisais du vélo",
      "coordonnees": {
        "latitude" : "45.46",
        "longitude" : "3.05"
      }
    },
    {
      "id" : 11,
      "nom" : "PAGEAUD",
      "prenom" : "Nathanael",
      "ville" : "",
      "avatar" : "avatar.png",
      "anecdotes" : "",
      "coordonnees": {
        "latitude" : "",
        "longitude" : ""
      }
    },
    {
      "id" : 12,
      "nom" : "REJA",
      "prenom" : "Baptiste",
      "ville" : "Niort",
      "avatar" : "avatar.png",
      "anecdotes" : "J'ai perdu mon tel dans un bar, je l'ai retrouvé 2 mois après, il avait pas bougé.",
      "coordonnees": {
        "latitude" : "46.3276",
        "longitude" : "-0.4665"
      }
    },
    {
      "id" : 13,
      "nom" : "PARDAL",
      "prenom" : "Noa",
      "ville" : "Elincourt",
      "avatar" : "avatar.png",
      "anecdotes" : "",
      "coordonnees": {
        "latitude" : "",
        "longitude" : ""
      }
    },
    {
      "id" : 14,
      "nom" : "PERSAUD",
      "prenom" : "Mahon",
      "ville" : "Mulhouse",
      "avatar" : "avatar.png",
      "anecdotes" : "",
      "coordonnees": {
        "latitude" : "47.7508",
        "longitude" : "7.33"
      }
    },
    {
      "id" : 15,
      "nom" : "BAYNARD",
      "prenom" : "Anabelle",
      "ville" : "La Copechagnière",
      "avatar" : "avatar.png",
      "anecdotes" : "Tombée d'un bateau, un enfant m'a lancé une tong en guise de bouée",
      "coordonnees": {
        "latitude" : "46.849285",
        "longitude" : "-1.346305"
      }
    },
    {
      "id" : 16,
      "nom" : "MARTIN",
      "prenom" : "Bastien",
      "ville" : "Niort",
      "avatar" : "avatar.png",
      "anecdotes" : "",
      "coordonnees": {
        "latitude" : "46.38024",
        "longitude" : "-0.388984"
      }
    }
  ]
}